Year,Month,Date,Primary Type,Description,Location Description,Arrest,Community Area,Latitude,Longitude
2001,2,2001-02-16 15:15:31,MOTOR VEHICLE THEFT,AUTOMOBILE,OTHER,False,37,41.799368912,-87.630487245
2001,5,2001-05-07 16:00:00,MOTOR VEHICLE THEFT,AUTOMOBILE,PARKING LOT/GARAGE(NON.RESID.),False,37,,
2001,8,2001-08-23 10:00:00,MOTOR VEHICLE THEFT,AUTOMOBILE,STREET,False,37,41.814044538000005,-87.63215730700001
2001,8,2001-08-24 09:00:00,THEFT,FINANCIAL ID THEFT: OVER $300,APARTMENT,False,37,41.815328191999996,-87.633397893
2001,10,2001-10-27 03:40:00,HOMICIDE,FIRST DEGREE MURDER,AUTO,False,37,41.808187210999996,-87.63333624799999
2001,10,2001-10-09 17:00:00,MOTOR VEHICLE THEFT,AUTOMOBILE,PARKING LOT/GARAGE(NON.RESID.),False,37,41.796234456,-87.63040780700001
2001,10,2001-10-15 17:00:00,CRIMINAL TRESPASS,TO LAND,GAS STATION,True,37,41.794558768,-87.631929669
2001,10,2001-10-01 10:00:00,THEFT,OVER $500,APARTMENT,False,37,41.815710738,-87.631328415
